{
	"merchants": [{
		"_id": "57cf75cea73e494d8675ef6f",
		"address": {
			"city": "Washington",
			"state": "DC",
			"street name": "22nd Street Northwest",
			"street number": "1221",
			"zip": "20037"
		},
		"category": ["lodging",
			"restaurant",
			"food",
			"point_of_interest",
			"establishment"
		],
		"geocode": {
			"lat": 38.90592240000001,
			"lng": -77.04854859999999
		},
		"name": "Washington Marriott Georgetown"
	}, {
		"_id": "57cf75cea73e494d8675ef70",
		"address": {
			"city": "Washington",
			"state": "DC",
			"street name": "New Hampshire Avenue Northwest",
			"street number": "1143",
			"zip": "20037"
		},
		"category": ["lodging",
			"restaurant",
			"food",
			"point_of_interest",
			"establishment"
		],
		"geocode": {
			"lat": 38.90471000000001,
			"lng": -77.04753199999999
		},
		"name": "Renaissance Washington, DC Dupont Circle Hotel"
	}, {
		"_id": "57cf75cea73e494d8675ef71",
		"address": {
			"city": "Washington",
			"state": "DC",
			"street name": "Connecticut Ave NW",
			"street number": "1900",
			"zip": "20009"
		},
		"category": ["gym",
			"lodging",
			"health",
			"restaurant",
			"food",
			"point_of_interest",
			"establishment"
		],
		"geocode": {
			"lat": 38.9159856,
			"lng": -77.0467961
		},
		"name": "Courtyard Washington, DC/Dupont Circle"
	}, {
		"_id": "57cf75cea73e494d8675ef72",
		"address": {
			"city": "Washington",
			"state": "DC",
			"street name": "Connecticut Avenue Northwest",
			"street number": "1127",
			"zip": "20036"
		},
		"category": ["bar",
			"lodging",
			"restaurant",
			"food",
			"point_of_interest",
			"establishment"
		],
		"geocode": {
			"lat": 38.9044783,
			"lng": -77.03980469999999
		},
		"name": "The Mayflower Hotel, Autograph Collection"
	}, {
		"_id": "57cf75cea73e494d8675ef73",
		"address": {
			"city": "Washington",
			"state": "DC",
			"street name": "Pennsylvania Avenue Northwest",
			"street number": "1331",
			"zip": "20004"
		},
		"category": ["bar",
			"lodging",
			"restaurant",
			"food",
			"point_of_interest",
			"establishment"
		],
		"geocode": {
			"lat": 38.896306,
			"lng": -77.03159099999999
		},
		"name": "JW Marriott Washington, DC"
	}, {
		"_id": "57cf75cea73e494d8675ef76",
		"address": {
			"city": "Washington",
			"state": "DC",
			"street name": "North Capitol Street Northwest",
			"street number": "520",
			"zip": "20001"
		},
		"category": ["bar",
			"lodging",
			"restaurant",
			"food",
			"point_of_interest",
			"establishment"
		],
		"geocode": {
			"lat": 38.8970727,
			"lng": -77.00948079999999
		},
		"name": "Phoenix Park Hotel"
	}, {
		"_id": "57cf75cea73e494d8675ef79",
		"address": {
			"city": "Washington",
			"state": "DC",
			"street name": "14th Street Northwest",
			"street number": "3100",
			"zip": "20010"
		},
		"category": ["electronics_store",
			"home_goods_store",
			"store",
			"point_of_interest",
			"establishment"
		],
		"geocode": {
			"lat": 38.9292478,
			"lng": -77.0335025
		},
		"name": "Best Buy"
	}, {
		"_id": "57cf75cea73e494d8675ef7c",
		"address": {
			"city": "Washington",
			"state": "DC",
			"street name": "P Street Northwest",
			"street number": "1440",
			"zip": "20005"
		},
		"category": ["grocery_or_supermarket",
			"bakery",
			"florist",
			"health",
			"food",
			"store",
			"point_of_interest",
			"establishment"
		],
		"geocode": {
			"lat": 38.9093874,
			"lng": -77.033361
		},
		"name": "Whole Foods Market"
	}, {
		"_id": "57cf75cea73e494d8675ef7f",
		"address": {
			"city": "Washington",
			"state": "DC",
			"street name": "I Street Northwest",
			"street number": "1620",
			"zip": "20006"
		},
		"category": ["bar",
			"restaurant",
			"food",
			"point_of_interest",
			"establishment"
		],
		"geocode": {
			"lat": 38.901179,
			"lng": -77.037579
		},
		"name": "Blackfinn Ameripub - DC"
	}, {
		"_id": "57cf75cea73e494d8675ef83",
		"address": {
			"city": "Washington",
			"state": "DC",
			"street name": "Pennsylvania Avenue Northwest",
			"street number": "1201",
			"zip": "20004"
		},
		"category": ["bar",
			"restaurant",
			"food",
			"point_of_interest",
			"establishment"
		],
		"geocode": {
			"lat": 38.89573530000001,
			"lng": -77.02829
		},
		"name": "Elephant & Castle"
	}, {
		"_id": "57cf75cea73e494d8675ef85",
		"address": {
			"city": "Washington",
			"state": "DC",
			"street name": "14th Street Northwest",
			"street number": "3100",
			"zip": "20010"
		},
		"category": ["department_store",
			"electronics_store",
			"clothing_store",
			"furniture_store",
			"home_goods_store",
			"store",
			"point_of_interest",
			"establishment"
		],
		"geocode": {
			"lat": 38.9292886,
			"lng": -77.033126
		},
		"name": "Target"
	}, {
		"_id": "57cf75cea73e494d8675ef86",
		"address": {
			"city": "Washington",
			"state": "DC",
			"street name": "19th Street Northwest",
			"street number": "1145",
			"zip": "20036"
		},
		"category": ["pharmacy",
			"health",
			"store",
			"point_of_interest",
			"establishment"
		],
		"geocode": {
			"lat": 38.9050493,
			"lng": -77.0431319
		},
		"name": "Tschiffely Pharmacy"
	}, {
		"_id": "57cf75cea73e494d8675ef87",
		"address": {
			"city": "Washington",
			"state": "DC",
			"street name": "11th Street Northwest",
			"street number": "555",
			"zip": "20004"
		},
		"category": ["store", "point_of_interest", "establishment"],
		"geocode": {
			"lat": 38.89627350000001,
			"lng": -77.0268024
		},
		"name": "T-Mobile Washington"
	}, {
		"_id": "57cf75cea73e494d8675ef88",
		"address": {
			"city": "Washington",
			"state": "DC",
			"street name": "H Street NE",
			"street number": "1234",
			"zip": "20002"
		},
		"category": ["bar",
			"restaurant",
			"food",
			"point_of_interest",
			"establishment"
		],
		"geocode": {
			"lat": 38.900388,
			"lng": -76.9890312
		},
		"name": "Toki Underground"
	}, {
		"_id": "57cf75cea73e494d8675ef8a",
		"address": {
			"city": "Washington",
			"state": "DC",
			"street name": "G Street Northwest",
			"street number": "1201",
			"zip": "20005"
		},
		"category": ["department_store",
			"jewelry_store",
			"clothing_store",
			"furniture_store",
			"home_goods_store",
			"store",
			"point_of_interest",
			"establishment"
		],
		"geocode": {
			"lat": 38.898759,
			"lng": -77.0286763
		},
		"name": "Macy's"
	}, {
		"_id": "57cf75cea73e494d8675ef91",
		"address": {
			"city": "Washington",
			"state": "DC",
			"street name": "Wisconsin Avenue Northwest",
			"street number": "1229",
			"zip": "20007"
		},
		"category": ["electronics_store",
			"store",
			"point_of_interest",
			"establishment"
		],
		"geocode": {
			"lat": 38.90593259999999,
			"lng": -77.0624358
		},
		"name": "Apple Georgetown"
	}, {
		"_id": "57cf75cea73e494d8675ef93",
		"address": {
			"city": "Washington",
			"state": "DC",
			"street name": "I Street Northwest",
			"street number": "1250",
			"zip": "20005"
		},
		"category": ["store", "point_of_interest", "establishment"],
		"geocode": {
			"lat": 38.9010284,
			"lng": -77.0292309
		},
		"name": "Blick Art Materials"
	}, {
		"_id": "57cf75cea73e494d8675ef94",
		"address": {
			"city": "Washington",
			"state": "DC",
			"street name": "H St NE",
			"street number": "1224",
			"zip": "20002"
		},
		"category": ["restaurant", "food", "point_of_interest", "establishment"],
		"geocode": {
			"lat": 38.9003929,
			"lng": -76.98930639999999
		},
		"name": "Sticky Rice"
	}, {
		"_id": "57cf75cea73e494d8675ef99",
		"address": {
			"city": "Washington",
			"state": "DC",
			"street name": "Corcoran Street Northwest",
			"street number": "1701",
			"zip": "20009"
		},
		"category": ["grocery_or_supermarket",
			"florist",
			"food",
			"store",
			"point_of_interest",
			"establishment"
		],
		"geocode": {
			"lat": 38.9119389,
			"lng": -77.0387138
		},
		"name": "Safeway"
	}, {
		"_id": "57cf75cea73e494d8675ef9a",
		"address": {
			"city": "Washington",
			"state": "DC",
			"street name": "15th Street Northwest",
			"street number": "675",
			"zip": "20005"
		},
		"category": ["bar",
			"restaurant",
			"food",
			"point_of_interest",
			"establishment"
		],
		"geocode": {
			"lat": 38.89796129999999,
			"lng": -77.03333549999999
		},
		"name": "Old Ebbitt Grill"
	}, {
		"_id": "57cf75cea73e494d8675ef9b",
		"address": {
			"city": "Washington",
			"state": "DC",
			"street name": "K Street Northwest",
			"street number": "1909",
			"zip": "20006"
		},
		"category": ["restaurant",
			"night_club",
			"bar",
			"food",
			"point_of_interest",
			"establishment"
		],
		"geocode": {
			"lat": 38.90275750000001,
			"lng": -77.0442411
		},
		"name": "Cities Restaurant & Lounge"
	}, {
		"_id": "57cf75cea73e494d8675ef9d",
		"address": {
			"city": "Washington",
			"state": "DC",
			"street name": "18th Street Northwest",
			"street number": "2471",
			"zip": "20009"
		},
		"category": ["bar",
			"restaurant",
			"food",
			"point_of_interest",
			"establishment"
		],
		"geocode": {
			"lat": 38.9222794,
			"lng": -77.0422279
		},
		"name": "Smoke & Barrel"
	}, {
		"_id": "57cf75cea73e494d8675efa1",
		"address": {
			"city": "Washington",
			"state": "DC",
			"street name": "Connecticut Avenue Northwest",
			"street number": "1120",
			"zip": "20036"
		},
		"category": ["clothing_store", "store", "point_of_interest", "establishment"],
		"geocode": {
			"lat": 38.9044371,
			"lng": -77.0406369
		},
		"name": "Gap"
	}, {
		"_id": "57cf75cea73e494d8675efa9",
		"address": {
			"city": "Washington",
			"state": "DC",
			"street name": "Pennsylvania Avenue Northwest",
			"street number": "801",
			"zip": "20004"
		},
		"category": ["bakery", "food", "store", "point_of_interest", "establishment"],
		"geocode": {
			"lat": 38.89410290000001,
			"lng": -77.02349930000001
		},
		"name": "PAUL"
	}, {
		"_id": "57cf75cea73e494d8675efaa",
		"address": {
			"city": "Washington",
			"state": "DC",
			"street name": "18th Street Northwest",
			"street number": "1216",
			"zip": "20036"
		},
		"category": ["meal_takeaway",
			"restaurant",
			"food",
			"store",
			"point_of_interest",
			"establishment"
		],
		"geocode": {
			"lat": 38.906329,
			"lng": -77.041915
		},
		"name": "Shake Shack"
	}, {
		"_id": "57cf75cea73e494d8675efac",
		"address": {
			"city": "Washington",
			"state": "DC",
			"street name": "Connecticut Avenue Northwest",
			"street number": "1350",
			"zip": "20036"
		},
		"category": ["bakery",
			"cafe",
			"food",
			"store",
			"point_of_interest",
			"establishment"
		],
		"geocode": {
			"lat": 38.9086717,
			"lng": -77.0431104
		},
		"name": "Krispy Kreme"
	}, {
		"_id": "57cf75cea73e494d8675efad",
		"address": {
			"city": "Washington",
			"state": "DC",
			"street name": "Pennsylvania Avenue Northwest",
			"street number": "1924",
			"zip": "20006"
		},
		"category": ["bar",
			"restaurant",
			"food",
			"point_of_interest",
			"establishment"
		],
		"geocode": {
			"lat": 38.9003072,
			"lng": -77.0445699
		},
		"name": "Founding Farmers DC"
	}, {
		"_id": "57cf75cea73e494d8675efae",
		"address": {
			"city": "Washington",
			"state": "DC",
			"street name": "11th St NW",
			"street number": "3234",
			"zip": "20010"
		},
		"category": ["restaurant",
			"bakery",
			"cafe",
			"bar",
			"food",
			"store",
			"point_of_interest",
			"establishment"
		],
		"geocode": {
			"lat": 38.9304954,
			"lng": -77.0281322
		},
		"name": "Room 11"
	}, {
		"_id": "57cf75cea73e494d8675efaf",
		"address": {
			"city": "Washington",
			"state": "DC",
			"street name": "F St NW",
			"street number": "1025",
			"zip": "20004"
		},
		"category": ["clothing_store", "store", "point_of_interest", "establishment"],
		"geocode": {
			"lat": 38.897532,
			"lng": -77.0269435
		},
		"name": "H&M"
	}, {
		"_id": "57cf75cea73e494d8675efb0",
		"address": {
			"city": "Washington",
			"state": "DC",
			"street name": "F Street Northwest",
			"street number": "1309",
			"zip": "20004"
		},
		"category": ["restaurant", "food", "point_of_interest", "establishment"],
		"geocode": {
			"lat": 38.8975035,
			"lng": -77.0301645
		},
		"name": "District Taco - Metro Center"
	}, {
		"_id": "57cf75cea73e494d8675efbc",
		"address": {
			"city": "Washington",
			"state": "DC",
			"street name": "14th Street Northwest",
			"street number": "600",
			"zip": "20005"
		},
		"category": ["bar",
			"restaurant",
			"food",
			"point_of_interest",
			"establishment"
		],
		"geocode": {
			"lat": 38.8976398,
			"lng": -77.03248529999999
		},
		"name": "The Hamilton"
	}, {
		"_id": "57cf75cea73e494d8675efbd",
		"address": {
			"city": "Washington",
			"state": "DC",
			"street name": "13th St NW",
			"street number": "513",
			"zip": "20004"
		},
		"category": ["restaurant", "food", "point_of_interest", "establishment"],
		"geocode": {
			"lat": 38.8964101,
			"lng": -77.0289521
		},
		"name": "Warner Theatre"
	}, {
		"_id": "57cf75cea73e494d8675efbe",
		"address": {
			"city": "Washington",
			"state": "DC",
			"street name": "F Street Northwest",
			"street number": "1025",
			"zip": "20004"
		},
		"category": ["clothing_store", "store", "point_of_interest", "establishment"],
		"geocode": {
			"lat": 38.897779,
			"lng": -77.0264097
		},
		"name": "Zara"
	}, {
		"_id": "57cf75cea73e494d8675efc4",
		"address": {
			"city": "Washington",
			"state": "DC",
			"street name": "U Street Northwest",
			"street number": "1602",
			"zip": "20009"
		},
		"category": ["restaurant",
			"bar",
			"food",
			"point_of_interest",
			"establishment"
		],
		"geocode": {
			"lat": 38.9168404,
			"lng": -77.0371078
		},
		"name": "Local 16"
	}, {
		"_id": "57cf75cea73e494d8675efc5",
		"address": {
			"city": "Washington",
			"state": "DC",
			"street name": "I Street Northwest",
			"street number": "2221",
			"zip": "20037"
		},
		"category": ["bar",
			"restaurant",
			"food",
			"point_of_interest",
			"establishment"
		],
		"geocode": {
			"lat": 38.9009607,
			"lng": -77.04983039999999
		},
		"name": "CIRCA at Foggy Bottom"
	}, {
		"_id": "57cf75cea73e494d8675efc8",
		"address": {
			"city": "Washington",
			"state": "DC",
			"street name": "14th Street Northwest",
			"street number": "1818",
			"zip": "20009"
		},
		"category": ["bakery",
			"cafe",
			"bar",
			"restaurant",
			"food",
			"store",
			"point_of_interest",
			"establishment"
		],
		"geocode": {
			"lat": 38.9146999,
			"lng": -77.0322925
		},
		"name": "Ted's Bulletin"
	}, {
		"_id": "57cf75cea73e494d8675efc9",
		"address": {
			"city": "Washington",
			"state": "DC",
			"street name": "Wisconsin Avenue Northwest",
			"street number": "2323",
			"zip": "20007"
		},
		"category": ["grocery_or_supermarket",
			"bakery",
			"florist",
			"health",
			"food",
			"store",
			"point_of_interest",
			"establishment"
		],
		"geocode": {
			"lat": 38.9209629,
			"lng": -77.07106279999999
		},
		"name": "Whole Foods Market"
	}, {
		"_id": "57cf75cea73e494d8675efcb",
		"address": {
			"city": "Washington",
			"state": "DC",
			"street name": "Columbia Road Northwest",
			"street number": "1841",
			"zip": "20009"
		},
		"category": ["clothing_store", "store", "point_of_interest", "establishment"],
		"geocode": {
			"lat": 38.9215086,
			"lng": -77.0437462
		},
		"name": "Fleet Feet Sports"
	}, {
		"_id": "57cf75cea73e494d8675efce",
		"address": {
			"city": "Washington",
			"state": "DC",
			"street name": "Queens Chapel Road Northeast",
			"street number": "2127",
			"zip": "20018"
		},
		"category": ["night_club",
			"bar",
			"restaurant",
			"food",
			"point_of_interest",
			"establishment"
		],
		"geocode": {
			"lat": 38.9196532,
			"lng": -76.9722512
		},
		"name": "stadiumclub"
	}, {
		"_id": "57cf75cea73e494d8675efd2",
		"address": {
			"city": "Washington",
			"state": "DC",
			"street name": "D Street Northwest",
			"street number": "633",
			"zip": "20004"
		},
		"category": ["bar",
			"restaurant",
			"food",
			"point_of_interest",
			"establishment"
		],
		"geocode": {
			"lat": 38.89488079999999,
			"lng": -77.0212781
		},
		"name": "Rasika"
	}, {
		"_id": "57cf75cea73e494d8675efd5",
		"address": {
			"city": "Washington",
			"state": "DC",
			"street name": "Wisconsin Avenue Northwest",
			"street number": "1855",
			"zip": "20007"
		},
		"category": ["grocery_or_supermarket",
			"pharmacy",
			"bakery",
			"liquor_store",
			"florist",
			"health",
			"food",
			"store",
			"point_of_interest",
			"establishment"
		],
		"geocode": {
			"lat": 38.9160568,
			"lng": -77.0673494
		},
		"name": "Safeway"
	}, {
		"_id": "57cf75cea73e494d8675efd6",
		"address": {
			"city": "Washington",
			"state": "DC",
			"street name": "9th Street Northwest",
			"street number": "701",
			"zip": "20001"
		},
		"category": ["bar",
			"restaurant",
			"food",
			"point_of_interest",
			"establishment"
		],
		"geocode": {
			"lat": 38.8987445,
			"lng": -77.023684
		},
		"name": "Zaytinya"
	}, {
		"_id": "57cf75cea73e494d8675efd7",
		"address": {
			"city": "Washington",
			"state": "DC",
			"street name": "18th Street Northwest",
			"street number": "2441",
			"zip": "20009"
		},
		"category": ["restaurant", "food", "point_of_interest", "establishment"],
		"geocode": {
			"lat": 38.9216102,
			"lng": -77.0419837
		},
		"name": "Sakuramen Ramen Bar"
	}, {
		"_id": "57cf75cea73e494d8675efd8",
		"address": {
			"city": "Washington",
			"state": "DC",
			"street name": "6th Street Northwest",
			"street number": "705",
			"zip": "20001"
		},
		"category": ["restaurant", "food", "point_of_interest", "establishment"],
		"geocode": {
			"lat": 38.8985735,
			"lng": -77.0196376
		},
		"name": "Daikaya - Ramen (1F), Izakaya (2F)"
	}, {
		"_id": "57cf75cea73e494d8675efd9",
		"address": {
			"city": "Washington",
			"state": "DC",
			"street name": "H Street Northeast",
			"street number": "401",
			"zip": "20002"
		},
		"category": ["restaurant", "food", "point_of_interest", "establishment"],
		"geocode": {
			"lat": 38.8999909,
			"lng": -77.0003909
		},
		"name": "Ethiopic Restaurant"
	}, {
		"_id": "57cf75cea73e494d8675efdc",
		"address": {
			"city": "Washington",
			"state": "DC",
			"street name": "Pennsylvania Avenue Northwest",
			"street number": "1001",
			"zip": "20004"
		},
		"category": ["bar",
			"restaurant",
			"food",
			"point_of_interest",
			"establishment"
		],
		"geocode": {
			"lat": 38.8951723,
			"lng": -77.02685029999999
		},
		"name": "Central Michel Richard"
	}, {
		"_id": "57cf75cea73e494d8675efde",
		"address": {
			"city": "Washington",
			"state": "DC",
			"street name": "17th Street Northwest",
			"street number": "1101",
			"zip": "20036"
		},
		"category": ["night_club",
			"bar",
			"restaurant",
			"food",
			"point_of_interest",
			"establishment"
		],
		"geocode": {
			"lat": 38.9040782,
			"lng": -77.0379947
		},
		"name": "Barcode"
	}, {
		"_id": "57cf75cea73e494d8675efe0",
		"address": {
			"city": "Washington",
			"state": "DC",
			"street name": "M Street Northwest",
			"street number": "2440",
			"zip": "20037"
		},
		"category": ["beauty_salon",
			"hair_care",
			"hospital",
			"doctor",
			"health",
			"store",
			"point_of_interest",
			"establishment"
		],
		"geocode": {
			"lat": 38.905045,
			"lng": -77.05291
		},
		"name": "MI Skin Dermatology Center"
	}, {
		"_id": "57cf75cea73e494d8675efe1",
		"address": {
			"city": "Washington",
			"state": "DC",
			"street name": "P Street Northwest",
			"street number": "2004",
			"zip": "20036"
		},
		"category": ["restaurant", "food", "point_of_interest", "establishment"],
		"geocode": {
			"lat": 38.9095123,
			"lng": -77.04513779999999
		},
		"name": "DUPONT PIZZA"
	}, {
		"_id": "57cf75cea73e494d8675efe3",
		"address": {
			"city": "Washington",
			"state": "DC",
			"street name": "Rhode Island Avenue Northeast",
			"street number": "901",
			"zip": "20018"
		},
		"category": ["hardware_store",
			"furniture_store",
			"home_goods_store",
			"store",
			"point_of_interest",
			"establishment"
		],
		"geocode": {
			"lat": 38.9208562,
			"lng": -76.99075239999999
		},
		"name": "The Home Depot"
	}, {
		"_id": "57cf75cea73e494d8675efe7",
		"address": {
			"city": "Washington",
			"state": "DC",
			"street name": "K Street Northwest",
			"street number": "3000",
			"zip": "20007"
		},
		"category": ["bar",
			"restaurant",
			"food",
			"point_of_interest",
			"establishment"
		],
		"geocode": {
			"lat": 38.901261,
			"lng": -77.059843
		},
		"name": "Sequoia DC"
	}, {
		"_id": "57cf75cea73e494d8675efe8",
		"address": {
			"city": "Washington",
			"state": "DC",
			"street name": "Connecticut Avenue Northwest",
			"street number": "1825",
			"zip": "20009"
		},
		"category": ["meal_takeaway",
			"restaurant",
			"food",
			"point_of_interest",
			"establishment"
		],
		"geocode": {
			"lat": 38.915173,
			"lng": -77.045632
		},
		"name": "Buca di Beppo - Washington, D.C."
	}, {
		"_id": "57cf75cea73e494d8675efea",
		"address": {
			"city": "Washington",
			"state": "DC",
			"street name": "M Street Northwest",
			"street number": "1837",
			"zip": "20036"
		},
		"category": ["restaurant", "food", "point_of_interest", "establishment"],
		"geocode": {
			"lat": 38.90584700000001,
			"lng": -77.043081
		},
		"name": "Chipotle Mexican Grill"
	}, {
		"_id": "57cf75cea73e494d8675efeb",
		"address": {
			"city": "Washington",
			"state": "DC",
			"street name": "17th Street Northwest",
			"street number": "1145",
			"zip": "20036"
		},
		"category": ["store", "point_of_interest", "establishment"],
		"geocode": {
			"lat": 38.90522889999999,
			"lng": -77.0379615
		},
		"name": "National Geographic Store"
	}, {
		"_id": "57cf75cea73e494d8675efee",
		"address": {
			"city": "Washington",
			"state": "DC",
			"street name": "New York Avenue Northwest",
			"street number": "1100",
			"zip": "20005"
		},
		"category": ["bar",
			"restaurant",
			"food",
			"point_of_interest",
			"establishment"
		],
		"geocode": {
			"lat": 38.899986,
			"lng": -77.027335
		},
		"name": "Capitol City Brewing Company"
	}, {
		"_id": "57cf75cea73e494d8675efef",
		"address": {
			"city": "Washington",
			"state": "DC",
			"street name": "L Street Northwest",
			"street number": "1901",
			"zip": "20036"
		},
		"category": ["electronics_store",
			"furniture_store",
			"home_goods_store",
			"store",
			"point_of_interest",
			"establishment"
		],
		"geocode": {
			"lat": 38.9040372,
			"lng": -77.0438703
		},
		"name": "Staples"
	}, {
		"_id": "57cf75cea73e494d8675eff0",
		"address": {
			"city": "Washington",
			"state": "DC",
			"street name": "M Street Northwest",
			"street number": "3301",
			"zip": "20007"
		},
		"category": ["bakery", "food", "store", "point_of_interest", "establishment"],
		"geocode": {
			"lat": 38.9052622,
			"lng": -77.0661745
		},
		"name": "Georgetown Cupcake"
	}, {
		"_id": "57cf75cea73e494d8675eff1",
		"address": {
			"city": "Washington",
			"state": "DC",
			"street name": "F Street Northwest",
			"street number": "900",
			"zip": "20004"
		},
		"category": ["bar",
			"restaurant",
			"food",
			"point_of_interest",
			"establishment"
		],
		"geocode": {
			"lat": 38.897074,
			"lng": -77.0242449
		},
		"name": "Gordon Biersch"
	}, {
		"_id": "57cf75cea73e494d8675eff2",
		"address": {
			"city": "Washington",
			"state": "DC",
			"street name": "7th Street Southeast",
			"street number": "225",
			"zip": "20003"
		},
		"category": ["grocery_or_supermarket",
			"food",
			"store",
			"point_of_interest",
			"establishment"
		],
		"geocode": {
			"lat": 38.8864534,
			"lng": -76.9964735
		},
		"name": "Eastern Market"
	}, {
		"_id": "57cf75cea73e494d8675eff5",
		"address": {
			"city": "Washington",
			"state": "DC",
			"street name": "15th Street Northwest",
			"street number": "915",
			"zip": "20005"
		},
		"category": ["bar",
			"restaurant",
			"food",
			"point_of_interest",
			"establishment"
		],
		"geocode": {
			"lat": 38.9018602,
			"lng": -77.0332923
		},
		"name": "Siroc Restaurant"
	}, {
		"_id": "57cf75cea73e494d8675eff6",
		"address": {
			"city": "Washington",
			"state": "DC",
			"street name": "7th Street Northwest",
			"street number": "810",
			"zip": "20001"
		},
		"category": ["bar",
			"restaurant",
			"food",
			"point_of_interest",
			"establishment"
		],
		"geocode": {
			"lat": 38.9004282,
			"lng": -77.0222921
		},
		"name": "RFD Washington"
	}, {
		"_id": "57cf75cea73e494d8675eff8",
		"address": {
			"city": "Washington",
			"state": "DC",
			"street name": "19th Street Northwest",
			"street number": "1207",
			"zip": "20036"
		},
		"category": ["bar",
			"restaurant",
			"food",
			"point_of_interest",
			"establishment"
		],
		"geocode": {
			"lat": 38.9060303,
			"lng": -77.0431136
		},
		"name": "Irish Whiskey Public House"
	}, {
		"_id": "57cf75cea73e494d8675effa",
		"address": {
			"city": "Washington",
			"state": "DC",
			"street name": "F Street Northwest",
			"street number": "1112",
			"zip": "20004"
		},
		"category": ["restaurant", "food", "point_of_interest", "establishment"],
		"geocode": {
			"lat": 38.8970398,
			"lng": -77.0276761
		},
		"name": "Tosca"
	}, {
		"_id": "57cf75cea73e494d8675effb",
		"address": {
			"city": "Washington",
			"state": "DC",
			"street name": "Connecticut Avenue Northwest",
			"street number": "1201",
			"zip": "20036"
		},
		"category": ["clothing_store", "store", "point_of_interest", "establishment"],
		"geocode": {
			"lat": 38.9058944,
			"lng": -77.0408733
		},
		"name": "Brooks Brothers"
	}, {
		"_id": "57cf75cea73e494d8675effc",
		"address": {
			"city": "Washington",
			"state": "DC",
			"street name": "I Street Northwest",
			"street number": "1915",
			"zip": "20006"
		},
		"category": ["bar",
			"restaurant",
			"food",
			"point_of_interest",
			"establishment"
		],
		"geocode": {
			"lat": 38.9015941,
			"lng": -77.0442144
		},
		"name": "KAZ Sushi Bistro"
	}, {
		"_id": "57cf75cea73e494d8675effe",
		"address": {
			"city": "Washington",
			"state": "DC",
			"street name": "20th Street Northwest",
			"street number": "1726",
			"zip": "20009"
		},
		"category": ["cafe", "food", "store", "point_of_interest", "establishment"],
		"geocode": {
			"lat": 38.9136898,
			"lng": -77.0450791
		},
		"name": "Filter Coffeehouse and Espresso Bar"
	}, {
		"_id": "57cf75cea73e494d8675efff",
		"address": {
			"city": "Washington",
			"state": "DC",
			"street name": "7th Street Northwest",
			"street number": "714",
			"zip": "20001"
		},
		"category": ["bar", "food", "point_of_interest", "establishment"],
		"geocode": {
			"lat": 38.899013,
			"lng": -77.022318
		},
		"name": "Rocket Bar"
	}, {
		"_id": "57cf75cea73e494d8675f004",
		"address": {
			"city": "Washington",
			"state": "DC",
			"street name": "14th Street Northwest",
			"street number": "2021",
			"zip": "20009"
		},
		"category": ["bar",
			"restaurant",
			"food",
			"point_of_interest",
			"establishment"
		],
		"geocode": {
			"lat": 38.9179709,
			"lng": -77.03166809999999
		},
		"name": "Busboys and Poets"
	}, {
		"_id": "57cf75cea73e494d8675f009",
		"address": {
			"city": "Washington",
			"state": "DC",
			"street name": "Pennsylvania Avenue Northwest",
			"street number": "2200",
			"zip": "20037"
		},
		"category": ["restaurant", "food", "point_of_interest", "establishment"],
		"geocode": {
			"lat": 38.90171099999999,
			"lng": -77.049791
		},
		"name": "Burger Tap & Shake Foggy Bottom"
	}, {
		"_id": "57cf75cea73e494d8675f00a",
		"address": {
			"city": "Washington",
			"state": "DC",
			"street name": "7th St NW",
			"street number": "401",
			"zip": "20004"
		},
		"category": ["bar",
			"restaurant",
			"food",
			"point_of_interest",
			"establishment"
		],
		"geocode": {
			"lat": 38.8949657,
			"lng": -77.0217231
		},
		"name": "Oyamel Cocina Mexicana"
	}, {
		"_id": "57cf75cea73e494d8675f00c",
		"address": {
			"city": "Washington",
			"state": "DC",
			"street name": "20th Street Northwest",
			"street number": "1610",
			"zip": "20009"
		},
		"category": ["bar",
			"restaurant",
			"food",
			"point_of_interest",
			"establishment"
		],
		"geocode": {
			"lat": 38.911614,
			"lng": -77.045036
		},
		"name": "Darlington House"
	}, {
		"_id": "57cf75cea73e494d8675f00d",
		"address": {
			"city": "Washington",
			"state": "DC",
			"street name": "M Street Northwest",
			"street number": "1850",
			"zip": "20036"
		},
		"category": ["bakery",
			"cafe",
			"restaurant",
			"food",
			"store",
			"point_of_interest",
			"establishment"
		],
		"geocode": {
			"lat": 38.9053257,
			"lng": -77.0428354
		},
		"name": "Au Bon Pain"
	}, {
		"_id": "57cf75cea73e494d8675f00e",
		"address": {
			"city": "Washington",
			"state": "DC",
			"street name": "11th Street Northwest",
			"street number": "3400",
			"zip": "20010"
		},
		"category": ["bar",
			"restaurant",
			"food",
			"point_of_interest",
			"establishment"
		],
		"geocode": {
			"lat": 38.9319143,
			"lng": -77.028443
		},
		"name": "Meridian Pint"
	}, {
		"_id": "57cf75cea73e494d8675f015",
		"address": {
			"city": "Washington",
			"state": "DC",
			"street name": "New York Avenue Northwest",
			"street number": "1099",
			"zip": "20001"
		},
		"category": ["bar",
			"restaurant",
			"food",
			"point_of_interest",
			"establishment"
		],
		"geocode": {
			"lat": 38.9016147,
			"lng": -77.0268526
		},
		"name": "Casa Luca"
	}, {
		"_id": "57cf75cea73e494d8675f016",
		"address": {
			"city": "Washington",
			"state": "DC",
			"street name": "Pennsylvania Avenue Northwest",
			"street number": "1201",
			"zip": "20004"
		},
		"category": ["bar",
			"restaurant",
			"food",
			"point_of_interest",
			"establishment"
		],
		"geocode": {
			"lat": 38.895667,
			"lng": -77.02860299999999
		},
		"name": "Del Frisco's Grille"
	}, {
		"_id": "57cf75cea73e494d8675f017",
		"address": {
			"city": "Washington",
			"state": "DC",
			"street name": "Connecticut Avenue Northwest",
			"street number": "800",
			"zip": "20006"
		},
		"category": ["bar",
			"restaurant",
			"food",
			"point_of_interest",
			"establishment"
		],
		"geocode": {
			"lat": 38.9005467,
			"lng": -77.0385055
		},
		"name": "The Oval Room"
	}, {
		"_id": "57cf75cea73e494d8675f018",
		"address": {
			"city": "Washington",
			"state": "DC",
			"street name": "Massachusetts Avenue Northeast",
			"street number": "320",
			"zip": "20002"
		},
		"category": ["bar",
			"restaurant",
			"food",
			"point_of_interest",
			"establishment"
		],
		"geocode": {
			"lat": 38.8944526,
			"lng": -77.0009663
		},
		"name": "Bistro Cacao"
	}, {
		"_id": "57cf75cea73e494d8675f019",
		"address": {
			"city": "Washington",
			"state": "DC",
			"street name": "F Street Northwest",
			"street number": "1201",
			"zip": "20004"
		},
		"category": ["restaurant", "food", "point_of_interest", "establishment"],
		"geocode": {
			"lat": 38.8975415,
			"lng": -77.0288719
		},
		"name": "The Oceanaire Seafood Room"
	}, {
		"_id": "57cf75cea73e494d8675f01a",
		"address": {
			"city": "Washington",
			"state": "DC",
			"street name": "Florida Avenue Northwest",
			"street number": "2132",
			"zip": "20008"
		},
		"category": ["restaurant", "food", "point_of_interest", "establishment"],
		"geocode": {
			"lat": 38.9127627,
			"lng": -77.04726289999999
		},
		"name": "Restaurant Nora"
	}, {
		"_id": "57cf75cea73e494d8675f01d",
		"address": {
			"city": "Washington",
			"state": "DC",
			"street name": "6th Street Southwest",
			"street number": "1101",
			"zip": "20024"
		},
		"category": ["restaurant", "food", "point_of_interest", "establishment"],
		"geocode": {
			"lat": 38.8773559,
			"lng": -77.02054609999999
		},
		"name": "Arena Stage at the Mead Center for American Theater"
	}, {
		"_id": "57cf75cea73e494d8675f01e",
		"address": {
			"city": "Washington",
			"state": "DC",
			"street name": "7th Street Northwest",
			"street number": "410",
			"zip": "20004"
		},
		"category": ["bar",
			"restaurant",
			"food",
			"point_of_interest",
			"establishment"
		],
		"geocode": {
			"lat": 38.89512929999999,
			"lng": -77.02224129999999
		},
		"name": "Hill Country Barbecue Market"
	}, {
		"_id": "57cf75cea73e494d8675f01f",
		"address": {
			"city": "Washington",
			"state": "DC",
			"street name": "H Street Northwest",
			"street number": "713",
			"zip": "20001"
		},
		"category": ["bar",
			"restaurant",
			"food",
			"point_of_interest",
			"establishment"
		],
		"geocode": {
			"lat": 38.9000325,
			"lng": -77.0225098
		},
		"name": "matchbox"
	}, {
		"_id": "57cf75cea73e494d8675f024",
		"address": {
			"city": "Washington",
			"state": "DC",
			"street name": "Connecticut Avenue Northwest",
			"street number": "818",
			"zip": "20006"
		},
		"category": ["restaurant", "food", "point_of_interest", "establishment"],
		"geocode": {
			"lat": 38.9009706,
			"lng": -77.03862190000001
		},
		"name": "Equinox"
	}, {
		"_id": "57cf75cea73e494d8675f025",
		"address": {
			"city": "Washington",
			"state": "DC",
			"street name": "7th Street Southeast",
			"street number": "225",
			"zip": "20003"
		},
		"category": ["restaurant", "food", "point_of_interest", "establishment"],
		"geocode": {
			"lat": 38.886652,
			"lng": -76.996438
		},
		"name": "The Market Lunch"
	}, {
		"_id": "57cf75cea73e494d8675f026",
		"address": {
			"city": "Washington",
			"state": "DC",
			"street name": "M Street Northwest",
			"street number": "1718",
			"zip": "20036"
		},
		"category": ["store", "point_of_interest", "establishment"],
		"geocode": {
			"lat": 38.9054062,
			"lng": -77.0390541
		},
		"name": "The Louver Shop Washington DC"
	}, {
		"_id": "57cf75cea73e494d8675f027",
		"address": {
			"city": "Washington",
			"state": "DC",
			"street name": "18th Street Northwest",
			"street number": "2427",
			"zip": "20009"
		},
		"category": ["bar",
			"restaurant",
			"food",
			"point_of_interest",
			"establishment"
		],
		"geocode": {
			"lat": 38.92123,
			"lng": -77.0418911
		},
		"name": "The Black Squirrel"
	}, {
		"_id": "57cf75cea73e494d8675f028",
		"address": {
			"city": "Washington",
			"state": "DC",
			"zip": "20004"
		},
		"category": ["store", "point_of_interest", "establishment"],
		"geocode": {
			"lat": 38.893586,
			"lng": -77.0215764
		},
		"name": "Grand Army of the Republic Memorial"
	}, {
		"_id": "57cf75cea73e494d8675f029",
		"address": {
			"city": "Washington",
			"state": "DC",
			"street name": "14th Street Northwest",
			"street number": "1337",
			"zip": "20005"
		},
		"category": ["bar",
			"night_club",
			"restaurant",
			"food",
			"point_of_interest",
			"establishment"
		],
		"geocode": {
			"lat": 38.9084906,
			"lng": -77.0313625
		},
		"name": "ChurchKey"
	}, {
		"_id": "57cf75cea73e494d8675f02c",
		"address": {
			"city": "Washington",
			"state": "DC",
			"street name": "Tingey Street Southeast",
			"street number": "300",
			"zip": "20003"
		},
		"category": ["restaurant",
			"bar",
			"food",
			"point_of_interest",
			"establishment"
		],
		"geocode": {
			"lat": 38.8750685,
			"lng": -77.00073499999999
		},
		"name": "Bluejacket"
	}, {
		"_id": "57cf75cea73e494d8675f02d",
		"address": {
			"city": "Washington",
			"state": "DC",
			"street name": "N Street Northwest",
			"street number": "1739",
			"zip": "20036"
		},
		"category": ["lodging",
			"restaurant",
			"food",
			"point_of_interest",
			"establishment"
		],
		"geocode": {
			"lat": 38.90742270000001,
			"lng": -77.0399782
		},
		"name": "The Tabard Inn"
	}]
}
